[
{
"sfBarId": 1119,
"sfStreetId": 10,
"name": "Audio Nightclub",
"descrip": "Funky '70s style informs this club with 2 bars, a sunken dance floor & cutting-edge light & sound",
"address": "316 11th Street",
"phone": "(415) 481-0556",
"hours": " 9-30 PM - 2 AM",
"latitude": 37.771425,
"longitude": -122.413750,
"websiteUrl": "http://www.audiosf.com/events/",
"facebookUrl": "https://www.facebook.com/audiosf/info?tab=overview",
"yelpUrl": "",
"imageUrl": "TableCell-Audio.png",
"sfstreet": {
    "sfStreetId": 10,
    "name": "11 TH Street",
    "descrip": "",
    "latitude": 37.761842,
    "longitude": -122.435299,
"imageUrl": "TableCell-11THStreet.png"}
},
{
"sfBarId": 1117,
"sfStreetId": 10,
"name": "Beatbox",
"descrip": "Venue for live music & more in a loftlike warehouse space with exposed brick & a wood dance floor",
"address": "314 11th Street",
"phone": "(415) 500-2675",
"hours": " PM - AM",
"latitude": 37.771506,
"longitude": -122.413926,
"websiteUrl": "http://beatboxsf.com/events/",
"facebookUrl": "https://www.facebook.com/BeatBoxSF",
"yelpUrl": "",
"imageUrl": "TableCell-BeatBox.png",
"sfstreet": {
    "sfStreetId": 10,
    "name": "11 TH Street",
    "descrip": "",
    "latitude": 37.761842,
    "longitude": -122.435299,
    "imageUrl": "TableCell-11THStreet.png"}
},
{
"sfBarId": 1116,
"sfStreetId": 10,
"name": "DNA Lounge",
"descrip": "Multilevel SoMa nightclub",
"address": "375 11TH Street",
"phone": "(415) 626-1409",
"hours": "Open 24 Hours",
"latitude": 37.771075,
"longitude": -122.412686,
"websiteUrl": "http://www.dnalounge.com/calendar/2015/01.html",
"facebookUrl": "https://www.facebook.com/dnalounge?ref=br_tf",
"yelpUrl": "",
"imageUrl": "TableCell-DNALounge.png",
"sfstreet": {
"sfStreetId": 10,
"name": "11 TH Street",
"descrip": "",
"latitude": 37.761842,
"longitude": -122.435299,
"imageUrl": "TableCell-11THStreet.png"}
},
{
"sfBarId": 1118,
"sfStreetId": 10,
"name": "Slim's",
"descrip": "Musician-owned live music club",
"address": "333 11TH Street",
"phone": "PHONENUMBER",
"hours": " 5 PM - 2 AM",
"latitude": 37.771520,
"longitude": -122.413250,
"websiteUrl": "http://www.slimspresents.com/",
"facebookUrl": "https://www.facebook.com/slimssf/info?tab=overview",
"yelpUrl": "",
"imageUrl": "TableCell-SLIMS.png",
"sfStreet": {
"sfStreetId": 10,
"name": "11 TH Street",
"descrip": "",
"latitude": 37.761842,
"longitude": -122.435299,
"imageUrl": "TableCell-11THStreet.png"}
},
{
"sfBarId": 1125,
"sfStreetId": 9,
"name": "Harvey's",
"descrip": "Named for gay activist Harvey Milk, this bar offers drinks, food, trivia & comedy shows.",
"address": "500 Castro Street",
"phone": "(415) 431-4278",
"hours": "11 AM - 11 PM",
"latitude": 37.760752,
"longitude": -122.435217,
"websiteUrl": "http://www.harveyssf.com/",
"facebookUrl": "https://www.facebook.com/SFHarveys",
"yelpUrl": "YELP",
"imageUrl": "TableCell-Harveys.png",
"sfStreet": {
"sfStreetId": 9,
"name": "18 TH Street",
"descrip": "",
"latitude": 37.761842,
"longitude": -122.435299,
"imageUrl": "TableCell-18THStreet.png"}
},
{
"sfBarId": 1120,
"sfStreetId": 9,
"name": "Midnight Sun",
"descrip": "Video Bar & longtime Castro fixture",
"address": "4067 18th St",
"phone": "(415) 861-4186",
"hours": "5 PM - 2 AM",
"latitude": 37.760811,
"longitude": -122.434316,
"websiteUrl": "http://www.midnightsunsf.com/",
"facebookUrl": "https://www.facebook.com/midnightsunsf",
"yelpUrl": "",
"imageUrl": "TableCell-MidnightSun.png",
"sfStreet": {
"sfStreetId": 9,
"name": "18 TH Street",
"descrip": "",
"latitude": 37.761842,
"longitude": -122.435299,
"imageUrl": "TableCell-18THStreet.png"}
},
{
"sfBarId": 1123,
"sfStreetId": 9,
"name": "Moby Dick",
"descrip": "Storied Bar",
"address": "4049 18th St",
"phone": "(415) 861-1199",
"hours": "5 PM - 2 AM",
"latitude": 37.760851,
"longitude": -122.433694,
"websiteUrl": "http://www.mobydicksf.com/",
"facebookUrl": "https://www.facebook.com/MobyDickBar",
"yelpUrl": "",
"imageUrl": "TableCell-MobyDick.png",
"sfStreet": {
"sfStreetId": 9,
"name": "18 TH Street",
"descrip": "",
"latitude": 37.761842,
"longitude": -122.435299,
"imageUrl": "TableCell-18THStreet.png"}
},
{
"sfBarId": 1124,
"sfStreetId": 9,
"name": "The Edge",
"descrip": "Local gay bar with nightly themes",
"address": "4149 18th Street",
"phone": "(415) 863-4027",
"hours": "12 PM - 2 AM",
"latitude": 37.760664,
"longitude": -122.435947,
"websiteUrl": "http://www.edgesf.com/",
"facebookUrl": "https://www.facebook.com/EdgeSF",
"yelpUrl": "",
"imageUrl": "TableCell-TheEdge.png",
"sfStreet": {
"sfStreetId": 9,
"name": "18 TH Street",
"descrip": "",
"latitude": 37.761842,
"longitude": -122.435299,
"imageUrl": "TableCell-18THStreet.png"}
},
{
"sfBarId": 1121,
"sfStreetId": 9,
"name": "The Mix",
"descrip": "Bar",
"address": "4086 18th St",
"phone": "(415) 431-8616",
"hours": "5 PM - 2 AM",
"latitude": 37.761116,
"longitude": -122.434422,
"websiteUrl": "http://www.sfmixbar.com",
"facebookUrl": "",
"yelpUrl": "",
"imageUrl": "TableCell-TheMix.png",
"sfStreet": {
"sfStreetId": 9,
"name": "18 TH Street",
"descrip": "",
"latitude": 37.761842,
"longitude": -122.435299,
"imageUrl": "TableCell-18THStreet.png"}
},
{
"sfBarId": 1122,
"sfStreetId": 9,
"name": "Toad Hall",
"descrip": "Dance Club",
"address": "4146 18th St",
"phone": "(415) 558-0893",
"hours": "5 PM - 2 AM",
"latitude": 37.760991,
"longitude": -122.435737,
"websiteUrl": "http://www.toadhallbar.com",
"facebookUrl": "https://www.facebook.com/ToadHallBar",
"yelpUrl": "",
"imageUrl": "TableCell-ToadHall.png",
"sfStreet": {
"sfStreetId": 9,
"name": "18 TH Street",
"descrip": "",
"latitude": 37.761842,
"longitude": -122.435299,
"imageUrl": "TableCell-18THStreet.png"}
},
{
"sfBarId": 1111,
"sfStreetId": 1,
"name": "440 Castro",
"descrip": "Wine Bar",
"address": "440 Castro St",
"phone": "(415) 621-8732",
"hours": "5 PM - 2 AM",
"latitude": 37.761841,
"longitude": -122.435054,
"websiteUrl": "http://www.440castro.com",
"facebookUrl": "http://www.facebook.com/440castro",
"yelpUrl": "",
"imageUrl": "TableCell-440Castro.png",
"sfStreet": {
"sfStreetId": 1,
"name": "Castro Street",
"descrip": "",
"latitude": 37.761842,
"longitude": -122.435299,
"imageUrl": "TableCell-CastroStreet.png"}
},
{
"sfBarId": 1112,
"sfStreetId": 1,
"name": "Badlands",
"descrip": "Dance Club",
"address": "4121 18th St",
"phone": "(415) 626-9320",
"hours": "5 PM - 2 AM",
"latitude": 37.760700,
"longitude": -122.435468,
"websiteUrl": "http://www.sfbadlands.com",
"facebookUrl": "https://www.facebook.com/pages/Badlands/158245524202434",
"yelpUrl": "",
"imageUrl": "TableCell-Badlands.png",
"sfStreet": {
"sfStreetId": 1,
"name": "Castro Street",
"descrip": "",
"latitude": 37.761842,
"longitude": -122.435299,
"imageUrl": "TableCell-CastroStreet.png"}
},
{
"sfBarId": 1113,
"sfStreetId": 1,
"name": "Blush! Wine Bar",
"descrip": "Dozens of vintages plus bistro fare",
"address": "476 Castro St",
"phone": "(415) 621-2811",
"hours": "5 PM - 2 AM",
"latitude": 37.761281,
"longitude": -122.435206,
"websiteUrl": "http://www.blushwinebar.com",
"facebookUrl": "",
"yelpUrl": "",
"imageUrl": "TableCell-Blush.png",
"sfStreet": {
"sfStreetId": 1,
"name": "Castro Street",
"descrip": "",
"latitude": 37.761842,
"longitude": -122.435299,
"imageUrl": "TableCell-CastroStreet.png"}
},
{
"sfBarId": 1114,
"sfStreetId": 1,
"name": "QBar",
"descrip": "Castro gay bar with a young male crowd",
"address": "456 Castro St",
"phone": "(415) 864-2877",
"hours": "5 PM - 2 AM",
"latitude": 37.761622,
"longitude": -122.435285,
"websiteUrl": "http://www.qbarsf.com",
"facebookUrl": "https://www.facebook.com/QbarSF",
"yelpUrl": "",
"imageUrl": "TableCell-QBar.png",
"sfStreet": {
"sfStreetId": 1,
"name": "Castro Street",
"descrip": "",
"latitude": 37.761842,
"longitude": -122.435299,
"imageUrl": "TableCell-CastroStreet.png"}
},
{
"sfBarId": 1115,
"sfStreetId": 1,
"name": "Twin Peaks Tavern",
"descrip": "Historical gay bar & Castro landmark ",
"address": "401 Castro Street",
"phone": "(415) 864-9470",
"hours": "8:00 AM â€“ 2:00 AM",
"latitude": 37.762353,
"longitude": -122.434964,
"websiteUrl": "http://www.twinpeakstavern.com/",
"facebookUrl": "https://www.facebook.com/pages/Twin-Peaks-Tavern/107386915965070",
"yelpUrl": "YELP",
"imageUrl": "TableCell-TwinPeaksTavern.png",
"sfStreet": {
"sfStreetId": 1,
"name": "Castro Street",
"descrip": "",
"latitude": 37.761842,
"longitude": -122.435299,
"imageUrl": "TableCell-CastroStreet.png"}
},
{
"sfBarId": 1148,
"sfStreetId": 5,
"name": "Churchill",
"descrip": "Cool, comfy spot for seasonal cocktails",
"address": "198 Church St",
"phone": "((415) 570-9198",
"hours": "",
"latitude": 37.767898,
"longitude": -122.429199,
"websiteUrl": "http://www.churchillsf.com/",
"facebookUrl": "https://www.facebook.com/Churchillsf",
"yelpUrl": "http://www.yelp.com/biz/churchill-san-francisco-3",
"imageUrl": "TableCell-Churchill.png",
"sfStreet": {
"sfStreetId": 5,
"name": "Church Steet",
"descrip": "",
"latitude": 37.767135,
"longitude": -122.428704,
"imageUrl": "TableCell-ChurchStreet.png"}
},
{
"sfBarId": 1147,
"sfStreetId": 5,
"name": "Pilsner Inn",
"descrip": "Gay Pub and sports bar with a garden patio",
"address": "225 Church St",
"phone": "(415) 621-7058",
"hours": "",
"latitude": 37.767116,
"longitude": -122.428722,
"websiteUrl": "http://www.pilsnerinn.com/",
"facebookUrl": "https://www.facebook.com/pages/Pilsner-Inn/110907268932249",
"yelpUrl": "",
"imageUrl": "TableCell-PilsnerInn.png",
"sfStreet": {
"sfStreetId": 5,
"name": "Church Steet",
"descrip": "",
"latitude": 37.767135,
"longitude": -122.428704,
"imageUrl": "TableCell-ChurchStreet.png"}
},
{
"sfBarId": 1150,
"sfStreetId": 6,
"name": "Brass Tacks",
"descrip": "Laid-back, yet stylish bar pours cocktails, wines on tap & craft beers under snazzy light fixtures. Laid-back, yet stylish bar pours cocktails, wines on tap & craft beers under snazzy light fixtures.",
"address": "488 Hayes Street",
"phone": "PHONENUMBER",
"hours": "2 PM - 2 AM",
"latitude": 37.776921,
"longitude": -122.424409,
"websiteUrl": "http://brasstackssf.com/",
"facebookUrl": "https://www.facebook.com/brasstackswines/timeline",
"yelpUrl": "",
"imageUrl": "TableCell-BrassTracks.png",
"sfStreet" : {
"sfStreetId": 6,
"name": "Hayes Street",
"descrip": "",
"latitude": 37.761842,
"longitude": -122.435299,
"imageUrl": "TableCell-HayesStreet.png"}
},
{
"sfBarId": 1151,
"sfStreetId": 6,
"name": "Noir Lounge",
"descrip": "Swanky wine bar & brewpub with a vintage Jazz-era vibe screens old films throughout",
"address": "581 Hayes Street",
"phone": "(415) 431-6647",
"hours": "3 PM - 1 AM",
"latitude": 37.776418,
"longitude": -122.425914,
"websiteUrl": "http://noir-sf.com/#!calendar/",
"facebookUrl": "https://www.facebook.com/NoirLoungeSF",
"yelpUrl": "",
"imageUrl": "TableCell-NoirLounge.png",
"sfStreet" : {
"sfStreetId": 6,
"name": "Hayes Street",
"descrip": "",
"latitude": 37.761842,
"longitude": -122.435299,
"imageUrl": "TableCell-HayesStreet.png"}
},
{
"sfBarId": 1149,
"sfStreetId": 6,
"name": "Sugar Lounge",
"descrip": "Intimate lounge with sweet specialty drinks & free happy-hour snacks in a sleek space with sofas",
"address": "377 Hayes Street",
"phone": "(415) 255-7144",
"hours": "4 PM - 2 AM",
"latitude": 37.776854,
"longitude": -122.422521,
"websiteUrl": "http://sugarloungesf.com/calendar/",
"facebookUrl": "https://www.facebook.com/SugarLoungeSF?ref=br_tf",
"yelpUrl": "",
"imageUrl": "TableCell-SugarLounge.png",
"sfStreet" : {
"sfStreetId": 6,
"name": "Hayes Street",
"descrip": "",
"latitude": 37.761842,
"longitude": -122.435299,
"imageUrl": "TableCell-HayesStreet.png"}
},
{
"sfBarId": 1135,
"sfStreetId": 3,
"name": "Beaux",
"descrip": "Gay bar with dance music all night",
"address": "2344 Market St",
"phone": "(415) 658-7712",
"hours": "4:00 PM - 2 AM",
"latitude": 37.763626,
"longitude": -122.434230,
"websiteUrl": "http://www.beauxsf.com/",
"facebookUrl": "https://www.facebook.com/beauxsf",
"yelpUrl": "",
"imageUrl": "TableCell-Beaux.png",
"sfStreet": {
"sfStreetId": 3,
"name": "Market Street",
"descrip": "",
"latitude": 37.763284,
"longitude": -122.434163,
"imageUrl": "TableCell-MarketStreet.png"}
},
{
"sfBarId": 1137,
"sfStreetId": 3,
"name": "Blackbird",
"descrip": "Inventive drinks in refined, loungey bar",
"address": "2124 Market St",
"phone": "(415) 503-0630",
"hours": "2 PM - 2 AM",
"latitude": 37.767300,
"longitude": -122.429608,
"websiteUrl": "http://www.blackbirdbar.com",
"facebookUrl": "https://www.facebook.com/BlackBirdSF",
"yelpUrl": "http://www.yelp.com/biz/blackbird-san-francisco",
"imageUrl": "TableCell-Blackbird.png",
"sfStreet": {
"sfStreetId": 3,
"name": "Market Street",
"descrip": "",
"latitude": 37.763284,
"longitude": -122.434163,
"imageUrl": "TableCell-MarketStreet.png"}
},
{
"sfBarId": 1141,
"sfStreetId": 3,
"name": "Local Edition",
"descrip": "An extensive cocktail menu is offered at this underground lounge with a vintage newspaper theme.",
"address": "691 Market Street",
"phone": "(415) 795-1375",
"hours": "5 PM - 2 AM",
"latitude": 37.787621,
"longitude": -122.402910,
"websiteUrl": "http://localeditionsf.com/?special=1",
"facebookUrl": "",
"yelpUrl": "",
"imageUrl": "TableCell-LocalEdition.png",
"sfStreet": {
"sfStreetId": 3,
"name": "Market Street",
"descrip": "",
"latitude": 37.763284,
"longitude": -122.434163,
"imageUrl": "TableCell-MarketStreet.png"}
},
{
"sfBarId": 1136,
"sfStreetId": 3,
"name": "Lucky 13",
"descrip": "Raucous rock 'n' roll bar",
"address": "2140 Market St",
"phone": "(415) 487-1313",
"hours": "11:00 AM - 2 AM",
"latitude": 37.767104,
"longitude": -122.429855,
"websiteUrl": "https://www.facebook.com/Lucky13SF",
"facebookUrl": "https://www.facebook.com/Lucky13SF",
"yelpUrl": "http://www.yelp.com/biz/lucky-13-san-francisco",
"imageUrl": "TableCell-Lucky13.png",
"sfStreet": {
"sfStreetId": 3,
"name": "Market Street",
"descrip": "",
"latitude": 37.763284,
"longitude": -122.434163,
"imageUrl": "TableCell-MarketStreet.png"}
},
{
"sfBarId": 1138,
"sfStreetId": 3,
"name": "Press Club",
"descrip": "Stylish underground wine bar",
"address": "20 Yerba Buena Lane",
"phone": "(415) 744-5000",
"hours": "2 PM - 2 AM",
"latitude": 37.785984,
"longitude": -122.404503,
"websiteUrl": "http://www.pressclubsf.com/events",
"facebookUrl": "https://www.facebook.com/PressClubSF",
"yelpUrl": "",
"imageUrl": "TableCell-PressClub.png",
"sfStreet": {
"sfStreetId": 3,
"name": "Market Street",
"descrip": "",
"latitude": 37.763284,
"longitude": -122.434163,
"imageUrl": "TableCell-MarketStreet.png"}
},
{
"sfBarId": 1139,
"sfStreetId": 3,
"name": "Sutter Station Tavern",
"descrip": "Low-key fixture for drinks & pub grub",
"address": "554 Market Street",
"phone": "(415) 434-4768",
"hours": " 7 AM - 2 AM",
"latitude": 37.789989,
"longitude": -122.400916,
"websiteUrl": "WEBSITE",
"facebookUrl": "FB",
"yelpUrl": "",
"imageUrl": "TableCell-SutterStationTavern.png",
"sfStreet": {
"sfStreetId": 3,
"name": "Market Street",
"descrip": "",
"latitude": 37.763284,
"longitude": -122.434163,
"imageUrl": "TableCell-MarketStreet.png"}
},
{
"sfBarId": 1133,
"sfStreetId": 3,
"name": "The Cafe",
"descrip": "Dance Club with DJs and theme events",
"address": "2369 Market St",
"phone": "(415) 861-3846",
"hours": "5 PM - 2 AM",
"latitude": 37.762980,
"longitude": -122.434332,
"websiteUrl": "http://www.cafesf.com/",
"facebookUrl": "https://www.facebook.com/TheCafeSF",
"yelpUrl": "",
"imageUrl": "TableCell-TheCafe.png",
"sfStreet": {
"sfStreetId": 3,
"name": "Market Street",
"descrip": "",
"latitude": 37.763284,
"longitude": -122.434163,
"imageUrl": "TableCell-MarketStreet.png"}
},
{
"sfBarId": 1134,
"sfStreetId": 3,
"name": "The Mint Karaoke",
"descrip": "Legendary Karaoke bar",
"address": "1942 Market St",
"phone": "(415) 626-4726",
"hours": "2:30 PM - 2 AM",
"latitude": 37.770267,
"longitude": -122.425843,
"websiteUrl": "http://www.themint.net/",
"facebookUrl": "https://www.facebook.com/pages/The-Mint-Karaoke-Lounge/107352429301675",
"yelpUrl": "",
"imageUrl": "TableCell-TheMint.png",
"sfStreet": {
"sfStreetId": 3,
"name": "Market Street",
"descrip": "",
"latitude": 37.763284,
"longitude": -122.434163,
"imageUrl": "TableCell-MarketStreet.png"}
},
{
"sfBarId": 1140,
"sfStreetId": 3,
"name": "The Showdown",
"descrip": "DJs spin an eclectic mix of hip-hop & dance tunes at this SoMa hangout known for its happy hour.",
"address": "10 6th Street",
"phone": "(415) 503-0684",
"hours": "5 PM - 2 AM",
"latitude": 37.781843,
"longitude": -122.410074,
"websiteUrl": "http://showdownsf.com/",
"facebookUrl": "",
"yelpUrl": "",
"imageUrl": "TableCell-TheShowdown.png",
"sfStreet": {
"sfStreetId": 3,
"name": "Market Street",
"descrip": "",
"latitude": 37.763284,
"longitude": -122.434163,
"imageUrl": "TableCell-MarketStreet.png"}
},
{
"sfBarId": 1142,
"sfStreetId": 4,
"name": "El Rio",
"descrip": "Gay friendly neighborhood bar",
"address": "3158 Mission St",
"phone": "(415) 282-3325",
"hours": "5 PM - 2 AM",
"latitude": 37.746794,
"longitude": -122.419396,
"websiteUrl": "http://www.elriosf.com/",
"facebookUrl": "https://www.facebook.com/elriosf",
"yelpUrl": "",
"imageUrl": "TableCell-ElRio.png",
"sfStreet": {
"sfStreetId": 4,
"name": "Mission Street",
"descrip": "",
"latitude": 37.746857,
"longitude": -122.419400,
"imageUrl": "TableCell-MissionStreet.png"}
},
{
"sfBarId": 1143,
"sfStreetId": 4,
"name": "Iron & Gold",
"descrip": "Cozy cocktail bar with a vintage vibe",
"address": "3187 Mission St",
"phone": "(415) 824-1447",
"hours": "5 PM - 2 AM",
"latitude": 37.745738,
"longitude": -122.419282,
"websiteUrl": "http://www.ironandgoldsf.com/",
"facebookUrl": "https://www.facebook.com/pages/Iron-Gold/148296501945286",
"yelpUrl": "",
"imageUrl": "TableCell-Iron&Gold.png",
"sfStreet": {
"sfStreetId": 4,
"name": "Mission Street",
"descrip": "",
"latitude": 37.746857,
"longitude": -122.419400,
"imageUrl": "TableCell-MissionStreet.png"}
},
{
"sfBarId": 1145,
"sfStreetId": 4,
"name": "Sloane SF",
"descrip": "Stylish, multilevel club with DJs",
"address": "1525 Mission Street",
"phone": "(415) 621-7007 ",
"hours": "9-30 PM - 2 AM",
"latitude": 37.773725,
"longitude": -122.417352,
"websiteUrl": "http://www.sloanesf.com/rsvp-sloane-guestlist.html",
"facebookUrl": "",
"yelpUrl": "",
"imageUrl": "TableCell-SloanSF.png",
"sfStreet": {
"sfStreetId": 4,
"name": "Mission Street",
"descrip": "",
"latitude": 37.746857,
"longitude": -122.419400,
"imageUrl": "TableCell-MissionStreet.png"}
},
{
"sfBarId": 1146,
"sfStreetId": 4,
"name": "The Armory Club",
"descrip": "Porn company Kink.com's dimly lit cocktail bar resembles an upscale Victorian parlor.",
"address": "1799 Mission Street",
"phone": "(415) 431-5300",
"hours": "5 PM - 2 AM",
"latitude": 37.768415,
"longitude": -122.419761,
"websiteUrl": "",
"facebookUrl": "https://www.facebook.com/TheArmoryClub",
"yelpUrl": "",
"imageUrl": "TableCell-TheArmoryClub.png",
"sfStreet": {
"sfStreetId": 4,
"name": "Mission Street",
"descrip": "",
"latitude": 37.746857,
"longitude": -122.419400,
"imageUrl": "TableCell-MissionStreet.png"}
},
{
"sfBarId": 1144,
"sfStreetId": 4,
"name": "The Royal Cuckoo",
"descrip": "The barkeeps spin vintage records at this dark bar with church pew seating & a throwback vibe",
"address": "3202 Mission Street",
"phone": "(415) 550-8667",
"hours": "5 PM - 2 AM",
"latitude": 37.745399,
"longitude": -122.420356,
"websiteUrl": "",
"facebookUrl": "https://www.facebook.com/pages/The-Royal-Cuckoo-Organ-Lounge/141220122598547",
"yelpUrl": "",
"imageUrl": "TableCell-TheRoyalCuckoo.png",
"sfStreet": {
"sfStreetId": 4,
"name": "Mission Street",
"descrip": "",
"latitude": 37.746857,
"longitude": -122.419400,
"imageUrl": "TableCell-MissionStreet.png"}
},
{
"sfBarId": 1128,
"sfStreetId": 2,
"name": "Amnesia",
"descrip": "Club revered for big range of live music",
"address": "853 Valencia St",
"phone": "(415) 970-0012",
"hours": "5 PM - 2 AM",
"latitude": 37.759284,
"longitude": -122.421158,
"websiteUrl": "http://amnesiathebar.com/newp/calendar/",
"facebookUrl": "https://www.facebook.com/amnesiaSF",
"yelpUrl": "",
"imageUrl": "TableCell-Amnesia.png",
"sfStreet":{
"sfStreetId": 2,
"name": "Valencia Street",
"descrip": "",
"latitude": 37.763302,
"longitude": -122.421211,
"imageUrl": "TableCell-ValenciaStreet.png"}
},
{
"sfBarId": 1131,
"sfStreetId": 2,
"name": "Blondie's Bar",
"descrip": "Loud music and lots of booze plus patio",
"address": "540 Valencia St",
"phone": "(415) 864-2419",
"hours": "4 PM - 2 AM",
"latitude": 37.764234,
"longitude": -122.422041,
"websiteUrl": "http://www.blondiesbarsf.com",
"facebookUrl": "https://www.facebook.com/blondiesbarsf",
"yelpUrl": "",
"imageUrl": "TableCell-BlondiesBar.png",
"sfStreet":{
"sfStreetId": 2,
"name": "Valencia Street",
"descrip": "",
"latitude": 37.763302,
"longitude": -122.421211,
"imageUrl": "TableCell-ValenciaStreet.png"}
},
{
"sfBarId": 1130,
"sfStreetId": 2,
"name": "Casanova Lounge",
"descrip": "Hipster-friendly lounge with funky decor",
"address": "527 Valencia St",
"phone": "(415) 863-9328",
"hours": "4 PM - 2 AM",
"latitude": 37.764398,
"longitude": -122.421655,
"websiteUrl": "https://www.facebook.com/casanovaloungesf",
"facebookUrl": "https://www.facebook.com/casanovaloungesf",
"yelpUrl": "",
"imageUrl": "TableCell-CasanovaLounge.png",
"sfStreet":{
"sfStreetId": 2,
"name": "Valencia Street",
"descrip": "",
"latitude": 37.763302,
"longitude": -122.421211,
"imageUrl": "TableCell-ValenciaStreet.png"}
},
{
"sfBarId": 1126,
"sfStreetId": 2,
"name": "Elbo Room",
"descrip": "Bar/Club with dancing, drinks and music",
"address": "647 Valencia St",
"phone": "(415) 552-7788",
"hours": "5 PM - 2 AM",
"latitude": 37.762511,
"longitude": -122.421516,
"websiteUrl": "http://www.elbo.com/",
"facebookUrl": "",
"yelpUrl": "",
"imageUrl": "TableCell-ElboRoom.png",
"sfStreet":{
"sfStreetId": 2,
"name": "Valencia Street",
"descrip": "",
"latitude": 37.763302,
"longitude": -122.421211,
"imageUrl": "TableCell-ValenciaStreet.png"}
},
{
"sfBarId": 1132,
"sfStreetId": 2,
"name": "Etcetera Wine Bar",
"descrip": "Wine Bar & French Bites",
"address": "795 Valencia St",
"phone": "(415) 926-5477",
"hours": "5 PM - 1:30 AM",
"latitude": 37.760278,
"longitude": -122.421339,
"websiteUrl": "http://www.etceterawinebar.com/",
"facebookUrl": "https://www.facebook.com/pages/Etcetera-Wine-Bar/193426027388135",
"yelpUrl": "",
"imageUrl": "TableCell-Etcetera.png",
"sfStreet":{
"sfStreetId": 2,
"name": "Valencia Street",
"descrip": "",
"latitude": 37.763302,
"longitude": -122.421211,
"imageUrl": "TableCell-ValenciaStreet.png"}
},
{
"sfBarId": 1129,
"sfStreetId": 2,
"name": "Lexington Club",
"descrip": "Lesbian bar with pool & jukebox or DJs",
"address": "3464 19th St",
"phone": "(415) 863-2052",
"hours": "3 PM - 2 AM",
"latitude": 37.760360,
"longitude": -122.420884,
"websiteUrl": "http://lexingtonclub.com/",
"facebookUrl": "https://www.facebook.com/lexingtonclub.sf",
"yelpUrl": "http://www.yelp.com/biz/lexington-club-san-francisco",
"imageUrl": "TableCell-LexingtonClub.png",
"sfStreet":{
"sfStreetId": 2,
"name": "Valencia Street",
"descrip": "",
"latitude": 37.763302,
"longitude": -122.421211,
"imageUrl": "TableCell-ValenciaStreet.png"}
},
{
"sfBarId": 1127,
"sfStreetId": 2,
"name": "The Chapel",
"descrip": "Live Music venue with full bar & food",
"address": "777 Valencia St",
"phone": "(415) 551-5157",
"hours": "7 PM - 2 AM",
"latitude": 37.760522,
"longitude": -122.421200,
"websiteUrl": "http://www.thechapelsf.com/",
"facebookUrl": "https://www.facebook.com/TheChapelSF",
"yelpUrl": "",
"imageUrl": "TableCell-TheChapel.png",
"sfStreet":{
"sfStreetId": 2,
"name": "Valencia Street",
"descrip": "",
"latitude": 37.763302,
"longitude": -122.421211,
"imageUrl": "TableCell-ValenciaStreet.png"}
}
]
